<?xml version="1.0" encoding="UTF-8"?>
<kml xmlns="http://www.opengis.net/kml/2.2">
<Document>
  <Placemark>
    <name>NE18 Punggol Coast</name>
    <Point>
      <coordinates>103.910166388177,1.41492733388605</coordinates>
    </Point>
  </Placemark>
  <Placemark>
    <name>PW2 Teck Lee</name>
    <Point>
      <coordinates>103.906577622768,1.4127708937463</coordinates>
    </Point>
  </Placemark>
  <Placemark>
    <name>DT4 Hume</name>
    <Point>
      <coordinates>103.76921708359546,1.35433845</coordinates>
    </Point>
  </Placemark>
  <Placemark>
    <name>TE30 Bedok South</name>
    <Point>
      <coordinates>103.94931120983,1.31668400658419</coordinates>
    </Point>
  </Placemark>
  <Placemark>
    <name>TE31 Sungei Bedok</name>
    <Point>
      <coordinates>103.957183823478,1.32040148729112</coordinates>
    </Point>
  </Placemark>
  <Placemark>
    <name>DT36 Xilin</name>
    <Point>
      <coordinates>103.964902569595,1.32890694938858</coordinates>
    </Point>
  </Placemark>
  <Placemark>
    <name>DT37 Sungei Bedok</name>
    <Point>
      <coordinates>103.957183823478,1.32040148729112</coordinates>
    </Point>
  </Placemark>
  <Placemark>
    <name>CC30 Keppel</name>
    <Point>
      <coordinates>103.830031459524,1.26977220124441</coordinates>
    </Point>
  </Placemark>
  <Placemark>
    <name>CC31 Cantonment</name>
    <Point>
      <coordinates>103.837062313764,1.27287214563203</coordinates>
    </Point>
  </Placemark>
  <Placemark>
    <name>CC32 Prince Edward Road</name>
    <Point>
      <coordinates>103.847097123745,1.27315693636085</coordinates>
    </Point>
  </Placemark>
  <Placemark>
    <name>JS1 Choa Chu Kang</name>
    <Point>
      <coordinates>103.74404,1.38535</coordinates>
    </Point>
  </Placemark>
  <Placemark>
    <name>JS2 Choa Chu Kang West</name>
    <Point>
      <coordinates>103.7399997,1.379215</coordinates>
    </Point>
  </Placemark>
  <Placemark>
    <name>JS3 Tengah</name>
    <Point>
      <coordinates>103.7300925,1.3662254</coordinates>
    </Point>
  </Placemark>
  <Placemark>
    <name>JS4 Hong Kah</name>
    <Point>
      <coordinates>103.726153007988,1.35812200829127</coordinates>
    </Point>
  </Placemark>
  <Placemark>
    <name>JS5 Corporation</name>
    <Point>
      <coordinates>103.7138109,1.3529781</coordinates>
    </Point>
  </Placemark>
  <Placemark>
    <name>JS6 Jurong West</name>
    <Point>
      <coordinates>103.7082891,1.3491904</coordinates>
    </Point>
  </Placemark>
  <Placemark>
    <name>JS7 Bahar Junction</name>
    <Point>
      <coordinates>103.7023562,1.3458098</coordinates>
    </Point>
  </Placemark>
  <Placemark>
    <name>JS8 Boon Lay</name>
    <Point>
      <coordinates>103.7058124,1.3385504</coordinates>
    </Point>
  </Placemark>
  <Placemark>
    <name>JW1 Gek Poh</name>
    <Point>
      <coordinates>103.6980778,1.3483266</coordinates>
    </Point>
  </Placemark>
  <Placemark>
    <name>JW2 Tawas</name>
    <Point>
      <coordinates>103.69188928314975,1.3506588499999999</coordinates>
    </Point>
  </Placemark>
  <Placemark>
    <name>TE22A Founders' Memorial</name>
    <Point>
      <coordinates>103.86911498010159,1.29083255</coordinates>
    </Point>
  </Placemark>
  <Placemark>
    <name>JE0 Tengah</name>
    <Point>
      <coordinates>103.7300925,1.3662254</coordinates>
    </Point>
  </Placemark>
  <Placemark>
    <name>JE1 Tengah Plantation</name>
    <Point>
      <coordinates>103.733406,1.3573609</coordinates>
    </Point>
  </Placemark>
  <Placemark>
    <name>JE2 Tengah Park</name>
    <Point>
      <coordinates>103.7368054,1.3522936</coordinates>
    </Point>
  </Placemark>
  <Placemark>
    <name>JE3 Bukit Batok West</name>
    <Point>
      <coordinates>103.7397329,1.3455305</coordinates>
    </Point>
  </Placemark>
  <Placemark>
    <name>JE4 Toh Guan</name>
    <Point>
      <coordinates>103.7426012,1.3400465</coordinates>
    </Point>
  </Placemark>
  <Placemark>
    <name>JE5 Jurong East</name>
    <Point>
      <coordinates>103.7419367,1.3329005</coordinates>
    </Point>
  </Placemark>
  <Placemark>
    <name>JE6 Jurong Town Hall</name>
    <Point>
      <coordinates>103.7452272,1.3264148</coordinates>
    </Point>
  </Placemark>
  <Placemark>
    <name>JE7 Pandan Reservoir</name>
    <Point>
      <coordinates>103.7448028,1.320439</coordinates>
    </Point>
  </Placemark>
  <Placemark>
    <name>JS9 Enterprise</name>
    <Point>
      <coordinates>103.7085422,1.3328021</coordinates>
    </Point>
  </Placemark>
  <Placemark>
    <name>JS10 Tukang</name>
    <Point>
      <coordinates>103.7092754,1.3253215</coordinates>
    </Point>
  </Placemark>
  <Placemark>
    <name>JS11 Jurong Hill</name>
    <Point>
      <coordinates>103.7102098,1.318581</coordinates>
    </Point>
  </Placemark>
  <Placemark>
    <name>JS12 Jurong Pier</name>
    <Point>
      <coordinates>103.7104354,1.313022</coordinates>
    </Point>
  </Placemark>
  <Placemark>
    <name>JW3 Nanyang Gateway</name>
    <Point>
      <coordinates>103.6866773,1.3537812</coordinates>
    </Point>
  </Placemark>
  <Placemark>
    <name>JW4 Nanyang Crescent</name>
    <Point>
      <coordinates>103.6811253,1.3485428</coordinates>
    </Point>
  </Placemark>
  <Placemark>
    <name>JW5 Peng Kang Hill</name>
    <Point>
      <coordinates>103.6785915,1.3428682</coordinates>
    </Point>
  </Placemark>
  <Placemark>
    <name>CR2 Aviation Park</name>
    <Point>
      <coordinates>104.00351666333239,1.3702162</coordinates>
    </Point>
  </Placemark>
  <Placemark>
    <name>CR3 Loyang</name>
    <Point>
      <coordinates>103.9723697170992,1.37153825</coordinates>
    </Point>
  </Placemark>
  <Placemark>
    <name>CR4 Pasir Ris East</name>
    <Point>
      <coordinates>103.96049178712413,1.36708265</coordinates>
    </Point>
  </Placemark>
  <Placemark>
    <name>CR5 Pasir Ris</name>
    <Point>
      <coordinates>103.94847083337655,1.37128735</coordinates>
    </Point>
  </Placemark>
  <Placemark>
    <name>CR6 Tampines North</name>
    <Point>
      <coordinates>103.93809295626107,1.3690124</coordinates>
    </Point>
  </Placemark>
  <Placemark>
    <name>CR7 Defu</name>
    <Point>
      <coordinates>103.8989547061777,1.36220375</coordinates>
    </Point>
  </Placemark>
  <Placemark>
    <name>CR8 Hougang</name>
    <Point>
      <coordinates>103.8907866,1.3712507</coordinates>
    </Point>
  </Placemark>
  <Placemark>
    <name>CR9 Serangoon North</name>
    <Point>
      <coordinates>103.8747510760485,1.3703489000000002</coordinates>
    </Point>
  </Placemark>
  <Placemark>
    <name>CR10 Tavistock</name>
    <Point>
      <coordinates>103.86270735882033,1.37009165</coordinates>
    </Point>
  </Placemark>
  <Placemark>
    <name>CR11 Ang Mo Kio</name>
    <Point>
      <coordinates>103.85039863467846,1.3692077999999999</coordinates>
    </Point>
  </Placemark>
  <Placemark>
    <name>CR12 Teck Ghee</name>
    <Point>
      <coordinates>103.84360631056299,1.3656117</coordinates>
    </Point>
  </Placemark>
  <Placemark>
    <name>CR13 Bright Hill</name>
    <Point>
      <coordinates>103.83691671999914,1.3630941</coordinates>
    </Point>
  </Placemark>
  <Placemark>
    <name>CR14 Turf City</name>
    <Point>
      <coordinates>103.79430247483285,1.340922</coordinates>
    </Point>
  </Placemark>
  <Placemark>
    <name>CR15 King Albert Park</name>
    <Point>
      <coordinates>103.7824767728621,1.33401975</coordinates>
    </Point>
  </Placemark>
  <Placemark>
    <name>CR16 Maju</name>
    <Point>
      <coordinates>103.77654689312335,1.3276587499999999</coordinates>
    </Point>
  </Placemark>
  <Placemark>
    <name>CR17 Clementi</name>
    <Point>
      <coordinates>103.76604037254504,1.3168251</coordinates>
    </Point>
  </Placemark>
  <Placemark>
    <name>CR18 West Coast</name>
    <Point>
      <coordinates>103.75795795574777,1.3106229</coordinates>
    </Point>
  </Placemark>
  <Placemark>
    <name>CR19 Jurong Lake District</name>
    <Point>
      <coordinates>103.73881989658071,1.3276184500000001</coordinates>
    </Point>
  </Placemark>
  <Placemark>
    <name>CP1 Pasir Ris</name>
    <Point>
      <coordinates>103.94847083337655,1.37128735</coordinates>
    </Point>
  </Placemark>
  <Placemark>
    <name>CP2 Elias</name>
    <Point>
      <coordinates>103.9390071,1.3833508</coordinates>
    </Point>
  </Placemark>
  <Placemark>
    <name>CP3 Riviera</name>
    <Point>
      <coordinates>103.91586335378861,1.3959577</coordinates>
    </Point>
  </Placemark>
  <Placemark>
    <name>CP4 Punggol</name>
    <Point>
      <coordinates>103.90179674458341,1.4054248</coordinates>
    </Point>
  </Placemark>
  <Placemark>
    <name>NS3A Brickland</name>
    <Point>
      <coordinates>103.74962412165956,1.3684781</coordinates>
    </Point>
  </Placemark>
  <Placemark>
    <name>CR1 Changi Airport Terminal 5</name>
    <Point>
      <coordinates>103.99643,1.33473</coordinates>
    </Point>
  </Placemark>
  <Placemark>
    <name>TE32 Changi Airport Terminal 5</name>
    <Point>
      <coordinates>103.99643,1.33473</coordinates>
    </Point>
  </Placemark>
  <Placemark>
    <name>CC18 Bukit Brown</name>
    <Point>
      <coordinates>103.830689549849,1.33372888295973</coordinates>
    </Point>
  </Placemark>
  <Placemark>
    <name>DT Sungei Kadut</name>
    <Point>
      <coordinates>103.7493903,1.4125423</coordinates>
    </Point>
  </Placemark>
  <Placemark>
    <name>NS6 Sungei Kadut</name>
    <Point>
      <coordinates>103.7493903,1.4125423</coordinates>
    </Point>
  </Placemark>
  <Placemark>
    <name>TE4A Tagore</name>
    <Point>
      <coordinates>103.8266128,1.3903418</coordinates>
    </Point>
  </Placemark>
  <Placemark>
    <name>TE10 Mount Pleasant</name>
    <Point>
      <coordinates>103.83518858199,1.32856455460666</coordinates>
    </Point>
  </Placemark>
  <Placemark>
    <name>TE21 Marina South</name>
    <Point>
      <coordinates>103.863574321728,1.27455475919137</coordinates>
    </Point>
  </Placemark>
</Document>
</kml>
