<?xml version="1.0" encoding="UTF-8"?>
<kml xmlns="http://www.opengis.net/kml/2.2">
<Document>
  <Placemark>
    <name>NE18 Punggol Coast</name>
    <Point>
      <coordinates>103.910166388177,1.41492733388605</coordinates>
    </Point>
  </Placemark>
  <Placemark>
    <name>PW2 Teck Lee</name>
    <Point>
      <coordinates>103.906577622768,1.4127708937463</coordinates>
    </Point>
  </Placemark>
  <Placemark>
    <name>DT4 Hume</name>
    <Point>
      <coordinates>103.76910392895523,1.354510835593032</coordinates>
    </Point>
  </Placemark>
  <Placemark>
    <name>TE30 Bedok South</name>
    <Point>
      <coordinates>103.94931120983,1.31668400658419</coordinates>
    </Point>
  </Placemark>
  <Placemark>
    <name>TE31 Sungei Bedok</name>
    <Point>
      <coordinates>103.957183823478,1.32040148729112</coordinates>
    </Point>
  </Placemark>
  <Placemark>
    <name>DT36 Xilin</name>
    <Point>
      <coordinates>103.964902569595,1.32890694938858</coordinates>
    </Point>
  </Placemark>
  <Placemark>
    <name>DT37 Sungei Bedok</name>
    <Point>
      <coordinates>103.957183823478,1.32040148729112</coordinates>
    </Point>
  </Placemark>
  <Placemark>
    <name>CC30 Keppel</name>
    <Point>
      <coordinates>103.830031459524,1.26977220124441</coordinates>
    </Point>
  </Placemark>
  <Placemark>
    <name>CC31 Cantonment</name>
    <Point>
      <coordinates>103.837062313764,1.27287214563203</coordinates>
    </Point>
  </Placemark>
  <Placemark>
    <name>CC32 Prince Edward Road</name>
    <Point>
      <coordinates>103.847097123745,1.27315693636085</coordinates>
    </Point>
  </Placemark>
  <Placemark>
    <name>JS1 Choa Chu Kang</name>
    <Point>
      <coordinates>103.74411408003186,1.3853823505075127</coordinates>
    </Point>
  </Placemark>
  <Placemark>
    <name>JS2 Choa Chu Kang West</name>
    <Point>
      <coordinates>103.7400134290408,1.379221009084314</coordinates>
    </Point>
  </Placemark>
  <Placemark>
    <name>JS3 Tengah</name>
    <Point>
      <coordinates>103.73008354165452,1.3663843951975398</coordinates>
    </Point>
  </Placemark>
  <Placemark>
    <name>JS4 Hong Kah</name>
    <Point>
      <coordinates>103.726153007988,1.35812200829127</coordinates>
    </Point>
  </Placemark>
  <Placemark>
    <name>JS5 Corporation</name>
    <Point>
      <coordinates>103.7138129954562,1.352969534325842</coordinates>
    </Point>
  </Placemark>
  <Placemark>
    <name>JS6 Jurong West</name>
    <Point>
      <coordinates>103.70825683283665,1.3491851409286637</coordinates>
    </Point>
  </Placemark>
  <Placemark>
    <name>JS7 Bahar Junction</name>
    <Point>
      <coordinates>103.70303410199647,1.3461917322908434</coordinates>
    </Point>
  </Placemark>
  <Placemark>
    <name>JS8 Boon Lay</name>
    <Point>
      <coordinates>103.70457367154302,1.3381080254056505</coordinates>
    </Point>
  </Placemark>
  <Placemark>
    <name>JW1 Gek Poh</name>
    <Point>
      <coordinates>103.69811603259494,1.3483461900930545</coordinates>
    </Point>
  </Placemark>
  <Placemark>
    <name>JW2 Tawas</name>
    <Point>
      <coordinates>103.69188973657315,1.3506581129055937</coordinates>
    </Point>
  </Placemark>
  <Placemark>
    <name>TE22A Founders' Memorial</name>
    <Point>
      <coordinates>103.86893419080917,1.2909735602132157</coordinates>
    </Point>
  </Placemark>
  <Placemark>
    <name>JE1 Tengah Plantation</name>
    <Point>
      <coordinates>103.73345298368662,1.357332135264109</coordinates>
    </Point>
  </Placemark>
  <Placemark>
    <name>JE2 Tengah Park</name>
    <Point>
      <coordinates>103.73679091059547,1.3523297593715915</coordinates>
    </Point>
  </Placemark>
  <Placemark>
    <name>JE3 Bukit Batok West</name>
    <Point>
      <coordinates>103.73950196752166,1.345673951039227</coordinates>
    </Point>
  </Placemark>
  <Placemark>
    <name>JE4 Toh Guan</name>
    <Point>
      <coordinates>103.74249481213499,1.339909056890633</coordinates>
    </Point>
  </Placemark>
  <Placemark>
    <name>JE5 Jurong East</name>
    <Point>
      <coordinates>103.74190976562035,1.3329658528821977</coordinates>
    </Point>
  </Placemark>
  <Placemark>
    <name>JE6 Jurong Town Hall</name>
    <Point>
      <coordinates>103.74521205260874,1.3263789776471084</coordinates>
    </Point>
  </Placemark>
  <Placemark>
    <name>JE7 Pandan Reservoir</name>
    <Point>
      <coordinates>103.74480076519164,1.3204582231533781</coordinates>
    </Point>
  </Placemark>
  <Placemark>
    <name>JS9 Enterprise</name>
    <Point>
      <coordinates>103.7085797577933,1.3327316696654732</coordinates>
    </Point>
  </Placemark>
  <Placemark>
    <name>JS10 Tukang</name>
    <Point>
      <coordinates>103.7092452147142,1.3254102896356554</coordinates>
    </Point>
  </Placemark>
  <Placemark>
    <name>JS11 Jurong Hill</name>
    <Point>
      <coordinates>103.71013468205798,1.3186246498006016</coordinates>
    </Point>
  </Placemark>
  <Placemark>
    <name>JS12 Jurong Pier</name>
    <Point>
      <coordinates>103.71039877677782,1.3131311689209213</coordinates>
    </Point>
  </Placemark>
  <Placemark>
    <name>JW3 Nanyang Gateway</name>
    <Point>
      <coordinates>103.6866068163041,1.3536887485621956</coordinates>
    </Point>
  </Placemark>
  <Placemark>
    <name>JW4 Nanyang Crescent</name>
    <Point>
      <coordinates>103.68080440180675,1.3484063188525033</coordinates>
    </Point>
  </Placemark>
  <Placemark>
    <name>JW5 Peng Kang Hill</name>
    <Point>
      <coordinates>103.67856429561844,1.3432055533670473</coordinates>
    </Point>
  </Placemark>
  <Placemark>
    <name>CR2 Aviation Park</name>
    <Point>
      <coordinates>104.00351384805849,1.370211388184954</coordinates>
    </Point>
  </Placemark>
  <Placemark>
    <name>CR3 Loyang</name>
    <Point>
      <coordinates>103.97192000259416,1.371144393904073</coordinates>
    </Point>
  </Placemark>
  <Placemark>
    <name>CR4 Pasir Ris East</name>
    <Point>
      <coordinates>103.9605806660392,1.3670184950774231</coordinates>
    </Point>
  </Placemark>
  <Placemark>
    <name>CR5 Pasir Ris</name>
    <Point>
      <coordinates>103.94888291887848,1.371259477431133</coordinates>
    </Point>
  </Placemark>
  <Placemark>
    <name>CR6 Tampines North</name>
    <Point>
      <coordinates>103.93813242151016,1.3694285704911953</coordinates>
    </Point>
  </Placemark>
  <Placemark>
    <name>CR7 Defu</name>
    <Point>
      <coordinates>103.89899601290718,1.362340217706843</coordinates>
    </Point>
  </Placemark>
  <Placemark>
    <name>CR8 Hougang</name>
    <Point>
      <coordinates>103.89114720923538,1.3709756026538165</coordinates>
    </Point>
  </Placemark>
  <Placemark>
    <name>CR9 Serangoon North</name>
    <Point>
      <coordinates>103.87379114279713,1.3706026103890074</coordinates>
    </Point>
  </Placemark>
  <Placemark>
    <name>CR10 Tavistock</name>
    <Point>
      <coordinates>103.86325202011629,1.3701885491112915</coordinates>
    </Point>
  </Placemark>
  <Placemark>
    <name>CR11 Ang Mo Kio</name>
    <Point>
      <coordinates>103.85090944829145,1.3693883850961412</coordinates>
    </Point>
  </Placemark>
  <Placemark>
    <name>CR12 Teck Ghee</name>
    <Point>
      <coordinates>103.84351959304215,1.3654215690477902</coordinates>
    </Point>
  </Placemark>
  <Placemark>
    <name>CR13 Bright Hill</name>
    <Point>
      <coordinates>103.83493819676748,1.3633085324439822</coordinates>
    </Point>
  </Placemark>
  <Placemark>
    <name>CR14 Turf City</name>
    <Point>
      <coordinates>103.79430247483285,1.340922</coordinates>
    </Point>
  </Placemark>
  <Placemark>
    <name>CR15 King Albert Park</name>
    <Point>
      <coordinates>103.7837920156923,1.3356647962031185</coordinates>
    </Point>
  </Placemark>
  <Placemark>
    <name>CR16 Maju</name>
    <Point>
      <coordinates>103.77654689312337,1.32765875</coordinates>
    </Point>
  </Placemark>
  <Placemark>
    <name>CR17 Clementi</name>
    <Point>
      <coordinates>103.76523303194249,1.315078221973319</coordinates>
    </Point>
  </Placemark>
  <Placemark>
    <name>CR18 West Coast</name>
    <Point>
      <coordinates>103.75795795574776,1.3106229</coordinates>
    </Point>
  </Placemark>
  <Placemark>
    <name>CR19 Jurong Lake District</name>
    <Point>
      <coordinates>103.73881989658072,1.32761845</coordinates>
    </Point>
  </Placemark>
  <Placemark>
    <name>CP1 Pasir Ris</name>
    <Point>
      <coordinates>103.94888291887848,1.371259477431133</coordinates>
    </Point>
  </Placemark>
  <Placemark>
    <name>CP2 Elias</name>
    <Point>
      <coordinates>103.9390071,1.3833508</coordinates>
    </Point>
  </Placemark>
  <Placemark>
    <name>CP3 Riviera</name>
    <Point>
      <coordinates>103.9162237900092,1.3946364786075784</coordinates>
    </Point>
  </Placemark>
  <Placemark>
    <name>CP4 Punggol</name>
    <Point>
      <coordinates>103.90237397817718,1.4051325907855552</coordinates>
    </Point>
  </Placemark>
  <Placemark>
    <name>NS3A Brickland</name>
    <Point>
      <coordinates>103.74962412165956,1.3684781</coordinates>
    </Point>
  </Placemark>
  <Placemark>
    <name>CR1 Changi Airport Terminal 5</name>
    <Point>
      <coordinates>103.99643,1.33473</coordinates>
    </Point>
  </Placemark>
  <Placemark>
    <name>TE32 Changi Airport Terminal 5</name>
    <Point>
      <coordinates>103.99643,1.33473</coordinates>
    </Point>
  </Placemark>
  <Placemark>
    <name>CC18 Bukit Brown</name>
    <Point>
      <coordinates>103.830689549849,1.33372888295973</coordinates>
    </Point>
  </Placemark>
  <Placemark>
    <name>DT Sungei Kadut</name>
    <Point>
      <coordinates>103.7493903,1.4125423</coordinates>
    </Point>
  </Placemark>
  <Placemark>
    <name>NS6 Sungei Kadut</name>
    <Point>
      <coordinates>103.7493903,1.4125423</coordinates>
    </Point>
  </Placemark>
  <Placemark>
    <name>TE4A Tagore</name>
    <Point>
      <coordinates>103.8266128,1.3903418</coordinates>
    </Point>
  </Placemark>
  <Placemark>
    <name>TE10 Mount Pleasant</name>
    <Point>
      <coordinates>103.83518858199,1.32856455460666</coordinates>
    </Point>
  </Placemark>
  <Placemark>
    <name>TE21 Marina South</name>
    <Point>
      <coordinates>103.863574321728,1.27455475919137</coordinates>
    </Point>
  </Placemark>
</Document>
</kml>
